City_ID,City,Country,Date,Lat,Lng,Max Temp,Humidity,Cloudiness,Wind Speed,Weather Description
0,Clyde River,CA,2022-07-22 03:17:41,70.4692,-68.5914,37.63,100,100,5.75,light rain
1,Qaanaaq,GL,2022-07-22 03:17:41,77.484,-69.3632,44.4,97,100,6.91,moderate rain
2,East London,ZA,2022-07-22 03:17:42,-33.0153,27.9116,54.54,87,0,6.91,clear sky
3,Dicabisagan,PH,2022-07-22 03:17:42,17.0818,122.4157,88.41,66,7,5.46,clear sky
4,Black River,JM,2022-07-22 03:17:43,18.0264,-77.8487,79.57,78,7,4.76,clear sky
5,Cape Town,ZA,2022-07-22 03:17:07,-33.9258,18.4232,52.12,90,0,2.3,clear sky
6,Belorechensk,RU,2022-07-22 03:17:43,44.76,39.87,61.97,85,88,5.64,overcast clouds
7,Hithadhoo,MV,2022-07-22 03:17:43,-0.6,73.0833,77.94,87,100,13.53,light rain
8,Sobradinho,BR,2022-07-22 03:17:44,-12.8333,-39.1,65.23,99,66,3.42,broken clouds
9,Verkh-Usugli,RU,2022-07-22 03:17:44,52.7,115.1667,79.38,45,53,5.97,broken clouds
10,Seoul,KR,2022-07-22 03:15:11,37.5683,126.9778,83.77,65,75,5.75,broken clouds
11,Kijang,KR,2022-07-22 03:17:45,35.2442,129.2139,87.53,70,38,3.98,scattered clouds
12,Nikolskoye,RU,2022-07-22 03:17:45,59.7035,30.7861,62.8,88,12,3.29,few clouds
13,Hobart,AU,2022-07-22 03:17:46,-42.8794,147.3294,57.06,64,20,12.66,few clouds
14,Albany,US,2022-07-22 03:17:25,42.6001,-73.9662,75.58,74,0,4.29,clear sky
15,Ushuaia,AR,2022-07-22 03:13:29,-54.8,-68.3,31.66,93,75,28.77,snow
16,Chuy,UY,2022-07-22 03:17:47,-33.6971,-53.4616,50.9,92,99,4.43,overcast clouds
17,Katsuura,JP,2022-07-22 03:17:47,35.1333,140.3,82.42,88,45,17.56,scattered clouds
18,Kualakapuas,ID,2022-07-22 03:17:47,-3.0091,114.3876,86.52,67,98,4.18,overcast clouds
19,Faanui,PF,2022-07-22 03:17:48,-16.4833,-151.75,77.34,73,16,10.63,few clouds
20,Neiafu,TO,2022-07-22 03:17:48,-18.65,-173.9833,77.18,75,15,10.45,few clouds
21,New Norfolk,AU,2022-07-22 03:17:48,-42.7826,147.0587,56.7,75,3,4.68,clear sky
22,Basoko,CD,2022-07-22 03:17:49,1.2391,23.616,71.02,96,100,2.28,moderate rain
23,Hamilton,US,2022-07-22 03:15:00,39.1834,-84.5333,78.75,76,0,6.91,clear sky
24,Husavik,IS,2022-07-22 03:17:49,66.0449,-17.3389,47.5,90,58,3.31,broken clouds
25,Saskylakh,RU,2022-07-22 03:17:50,71.9167,114.0833,55.45,59,100,8.21,overcast clouds
26,Kodiak,US,2022-07-22 03:17:50,57.79,-152.4072,54.91,76,100,0.0,overcast clouds
27,Alofi,NU,2022-07-22 03:17:51,-19.0595,-169.9187,80.49,65,40,11.5,scattered clouds
28,Rikitea,PF,2022-07-22 03:17:46,-23.1203,-134.9692,74.44,81,99,24.94,light rain
29,Puerto Ayora,EC,2022-07-22 03:17:51,-0.7393,-90.3518,67.55,98,58,1.99,broken clouds
30,Nouadhibou,MR,2022-07-22 03:17:52,20.931,-17.0347,75.18,88,5,3.44,clear sky
31,Bethel,US,2022-07-22 03:17:52,41.3712,-73.414,80.06,82,31,1.01,scattered clouds
32,Kapaa,US,2022-07-22 03:17:53,22.0752,-159.319,85.98,72,75,16.11,broken clouds
33,Codrington,AU,2022-07-22 03:17:53,-38.2667,141.9667,59.47,66,100,14.99,light rain
34,Pochutla,MX,2022-07-22 03:17:54,15.7432,-96.4661,78.82,92,100,3.67,overcast clouds
35,Odweyne,SO,2022-07-22 03:17:54,9.4092,45.064,69.91,53,48,19.15,scattered clouds
36,Airai,TL,2022-07-22 03:17:54,-8.9266,125.4092,70.56,37,43,4.23,scattered clouds
37,Kailua,US,2022-07-22 03:17:55,21.4022,-157.7394,87.78,69,40,11.5,scattered clouds
38,Numan,NG,2022-07-22 03:17:55,9.4667,12.0333,72.64,94,84,7.31,light rain
39,Busselton,AU,2022-07-22 03:17:56,-33.65,115.3333,61.3,80,97,10.18,overcast clouds
40,Hambantota,LK,2022-07-22 03:17:56,6.1241,81.1185,80.92,77,100,18.01,overcast clouds
41,Amga,RU,2022-07-22 03:17:56,60.8953,131.9608,82.2,48,46,3.09,scattered clouds
42,Fortuna,US,2022-07-22 03:17:57,40.5982,-124.1573,62.1,80,42,3.0,scattered clouds
43,Esperance,AU,2022-07-22 03:17:57,-33.8667,121.9,59.43,74,43,19.39,scattered clouds
44,Yellowknife,CA,2022-07-22 03:13:35,62.456,-114.3525,57.6,67,88,4.12,overcast clouds
45,Bambous Virieux,MU,2022-07-22 03:17:58,-20.3428,57.7575,69.22,71,78,17.11,light rain
46,Alamosa,US,2022-07-22 03:17:58,37.4695,-105.87,71.58,40,0,9.22,clear sky
47,Port Alfred,ZA,2022-07-22 03:17:59,-33.5906,26.891,56.35,81,23,9.98,few clouds
48,Limbang,MY,2022-07-22 03:17:59,4.75,115.0,89.71,58,100,1.32,overcast clouds
49,Tamworth,GB,2022-07-22 03:17:59,52.634,-1.6959,62.65,83,100,5.01,overcast clouds
50,Avarua,CK,2022-07-22 03:13:37,-21.2078,-159.775,77.05,69,20,18.41,few clouds
51,Mataura,NZ,2022-07-22 03:18:00,-46.1927,168.8643,44.47,90,100,3.15,overcast clouds
52,Kirakira,SB,2022-07-22 03:18:01,-10.4544,161.9205,84.31,70,100,5.46,overcast clouds
53,Narsaq,GL,2022-07-22 03:18:01,60.9167,-46.05,50.22,78,6,4.14,clear sky
54,Mar Del Plata,AR,2022-07-22 03:14:26,-38.0023,-57.5575,49.08,72,0,9.22,clear sky
55,Aklavik,CA,2022-07-22 03:18:01,68.2191,-135.0107,70.5,45,84,11.07,broken clouds
56,Severo-Kurilsk,RU,2022-07-22 03:18:02,50.6789,156.125,52.92,95,100,23.09,heavy intensity rain
57,Bilma,NE,2022-07-22 03:18:02,18.6853,12.9164,88.38,34,77,7.11,broken clouds
58,Westport,US,2022-07-22 03:16:58,41.1415,-73.3579,85.08,91,0,5.75,clear sky
59,Tuktoyaktuk,CA,2022-07-22 03:18:03,69.4541,-133.0374,59.0,82,75,10.36,broken clouds
60,Tiksi,RU,2022-07-22 03:18:03,71.6872,128.8694,46.18,75,60,7.25,broken clouds
61,Walvis Bay,NA,2022-07-22 03:18:04,-22.9575,14.5053,56.35,47,0,4.61,clear sky
62,Denpasar,ID,2022-07-22 03:16:12,-8.65,115.2167,82.06,78,40,13.8,scattered clouds
63,Praia Da Vitoria,PT,2022-07-22 03:18:04,38.7333,-27.0667,70.75,94,0,1.86,clear sky
64,Atuona,PF,2022-07-22 03:18:05,-9.8,-139.0333,77.38,70,2,15.37,clear sky
65,Tanout,NE,2022-07-22 03:18:05,14.9709,8.8879,84.85,45,84,6.42,broken clouds
66,Viedma,AR,2022-07-22 03:18:06,-40.8135,-62.9967,47.35,53,100,14.76,overcast clouds
67,Tutoia,BR,2022-07-22 03:18:06,-2.7619,-42.2744,78.22,79,30,4.9,scattered clouds
68,Lata,PT,2022-07-22 03:18:07,40.1629,-8.3327,57.38,93,54,0.67,broken clouds
69,Esna,EG,2022-07-22 03:18:07,25.2934,32.554,82.38,28,4,14.34,clear sky
70,Yanam,IN,2022-07-22 03:18:07,16.7333,82.2167,84.38,71,100,7.02,overcast clouds
71,Punta Arenas,CL,2022-07-22 03:15:08,-53.15,-70.9167,32.11,86,20,16.11,few clouds
72,Ponta Delgada,PT,2022-07-22 03:18:08,37.7333,-25.6667,69.49,88,20,3.44,few clouds
73,Manokwari,ID,2022-07-22 03:18:08,-0.8667,134.0833,80.53,80,100,8.39,overcast clouds
74,Georgetown,MY,2022-07-22 03:18:09,5.4112,100.3354,89.55,70,20,4.61,few clouds
75,Carnarvon,AU,2022-07-22 03:18:09,-24.8667,113.6333,65.82,53,0,19.42,clear sky
76,Innisfail,AU,2022-07-22 03:18:10,-17.5333,146.0333,70.83,72,61,8.99,broken clouds
77,Lazaro Cardenas,MX,2022-07-22 03:18:10,17.9583,-102.2,81.9,83,89,1.72,overcast clouds
78,Musoma,TZ,2022-07-22 03:18:11,-1.5,33.8,67.24,59,59,11.56,broken clouds
79,Meulaboh,ID,2022-07-22 03:18:11,4.1363,96.1285,84.88,64,61,3.13,broken clouds
80,Maxixe,MZ,2022-07-22 03:18:12,-23.8597,35.3472,64.99,88,5,1.63,clear sky
81,Upernavik,GL,2022-07-22 03:18:12,72.7868,-56.1549,44.04,96,100,23.96,light rain
82,Athens,GR,2022-07-22 03:14:46,37.9795,23.7162,82.26,38,0,3.0,clear sky
83,Vila Franca Do Campo,PT,2022-07-22 03:18:13,37.7167,-25.4333,69.19,84,57,2.28,broken clouds
84,Dunedin,NZ,2022-07-22 03:18:13,-45.8742,170.5036,46.8,72,100,3.0,overcast clouds
85,Coruripe,BR,2022-07-22 03:18:07,-10.1256,-36.1756,72.07,88,73,7.83,broken clouds
86,Berlevag,NO,2022-07-22 03:18:14,70.8578,29.0864,55.2,87,100,19.57,overcast clouds
87,Port Lincoln,AU,2022-07-22 03:15:48,-34.7333,135.8667,59.54,58,100,18.05,overcast clouds
88,Sao Filipe,CV,2022-07-22 03:18:14,14.8961,-24.4956,74.1,88,85,5.59,overcast clouds
89,Dikson,RU,2022-07-22 03:18:15,73.5069,80.5464,48.61,84,38,12.3,scattered clouds
90,Torbay,CA,2022-07-22 03:18:15,47.6666,-52.7314,61.57,86,75,2.3,broken clouds
91,Tasiilaq,GL,2022-07-22 03:18:15,65.6145,-37.6368,33.96,83,81,0.69,broken clouds
92,Khatanga,RU,2022-07-22 03:18:16,71.9667,102.5,60.76,58,98,10.04,overcast clouds
93,Thompson,CA,2022-07-22 03:15:53,55.7435,-97.8558,60.96,94,100,4.61,overcast clouds
94,Saint-Pierre,RE,2022-07-22 03:18:16,-21.3393,55.4781,65.88,62,0,8.05,clear sky
95,Margate,GB,2022-07-22 03:18:17,51.3813,1.3862,63.3,79,30,3.0,scattered clouds
96,Gobabis,NA,2022-07-22 03:18:17,-22.45,18.9667,49.87,54,1,10.47,clear sky
97,Tual,ID,2022-07-22 03:18:18,-5.6667,132.75,78.82,70,39,18.99,scattered clouds
98,Nanortalik,GL,2022-07-22 03:18:18,60.1432,-45.2371,48.31,81,4,3.78,clear sky
99,Jaleswar,NP,2022-07-22 03:18:18,26.6471,85.8008,82.26,79,100,10.29,light rain
100,Akdepe,TM,2022-07-22 03:18:19,42.0551,59.3788,93.29,17,0,7.27,clear sky
101,Kitimat,CA,2022-07-22 03:18:19,54.0524,-128.6534,71.98,59,44,1.99,scattered clouds
102,Honiara,SB,2022-07-22 03:18:20,-9.4333,159.95,86.99,61,73,5.7,broken clouds
103,Lucapa,AO,2022-07-22 03:18:20,-8.4192,20.7447,66.63,54,47,4.52,scattered clouds
104,Hobyo,SO,2022-07-22 03:18:20,5.3505,48.5268,75.31,82,53,20.56,broken clouds
105,Saint-Joseph,RE,2022-07-22 03:18:21,-21.3667,55.6167,64.78,73,23,11.36,few clouds
106,Hilo,US,2022-07-22 03:18:21,19.7297,-155.09,81.28,89,100,4.61,heavy intensity rain
107,Barrow,US,2022-07-22 03:18:22,71.2906,-156.7887,42.82,75,40,24.16,scattered clouds
108,Gotsu,JP,2022-07-22 03:18:22,35.0,132.2167,73.87,92,76,11.72,broken clouds
109,Bathsheba,BB,2022-07-22 03:18:22,13.2167,-59.5167,83.01,88,40,21.85,scattered clouds
110,Ponta Do Sol,PT,2022-07-22 03:18:23,32.6667,-17.1,68.72,82,9,7.63,clear sky
111,Jamestown,US,2022-07-22 03:16:03,42.097,-79.2353,73.71,81,0,6.91,clear sky
112,Castro,BR,2022-07-22 03:18:23,-24.7911,-50.0119,58.96,84,100,2.55,overcast clouds
113,Caravelas,BR,2022-07-22 03:18:24,-17.7125,-39.2481,69.49,91,10,6.13,clear sky
114,Saint-Philippe,RE,2022-07-22 03:18:24,-21.3585,55.7679,65.79,77,18,12.01,few clouds
115,Vaini,TO,2022-07-22 03:18:25,-21.2,-175.2,74.1,76,33,11.45,scattered clouds
116,Longyearbyen,SJ,2022-07-22 03:18:25,78.2186,15.6401,49.84,87,75,2.3,broken clouds
117,Santo Tomas,PH,2022-07-22 03:18:25,14.1079,121.1414,85.57,64,30,6.11,scattered clouds
118,Katangli,RU,2022-07-22 03:18:26,51.7102,143.2326,57.24,84,100,10.47,overcast clouds
119,Deputatskiy,RU,2022-07-22 03:18:26,69.3,139.9,58.17,50,5,16.06,clear sky
120,Haines Junction,CA,2022-07-22 03:18:27,60.7522,-137.5108,60.75,44,71,12.66,broken clouds
121,Chiang Klang,TH,2022-07-22 03:18:27,19.2938,100.8617,83.16,80,66,2.77,broken clouds
122,Zhangjiakou,CN,2022-07-22 03:18:27,40.81,114.8794,81.45,52,100,9.71,moderate rain
123,Oga,IT,2022-07-22 03:18:28,46.4631,10.347,62.69,84,6,1.83,clear sky
124,Tessalit,ML,2022-07-22 03:18:28,20.1986,1.0114,86.58,37,0,5.84,clear sky
125,Omboue,GA,2022-07-22 03:18:29,-1.5746,9.2618,70.92,91,95,9.13,overcast clouds
126,Ribeira Grande,PT,2022-07-22 03:18:29,38.5167,-28.7,72.41,88,36,3.2,scattered clouds
127,Emerald,AU,2022-07-22 03:18:29,-23.5333,148.1667,69.35,56,1,16.35,clear sky
128,Estelle,US,2022-07-22 03:17:48,29.8458,-90.1067,84.2,79,75,3.44,broken clouds
129,Boa Vista,BR,2022-07-22 03:18:30,2.8197,-60.6733,78.78,83,75,4.61,light rain
130,Ewa Beach,US,2022-07-22 03:18:30,21.3156,-158.0072,87.75,53,0,15.01,clear sky
131,Bredasdorp,ZA,2022-07-22 03:18:31,-34.5322,20.0403,47.14,80,100,4.43,overcast clouds
132,Marzuq,YE,2022-07-22 03:18:31,14.4,46.4667,73.17,68,19,7.85,few clouds
133,Cidreira,BR,2022-07-22 03:18:32,-30.1811,-50.2056,63.16,92,100,2.37,overcast clouds
134,Pangnirtung,CA,2022-07-22 03:18:32,66.1451,-65.7125,43.3,91,29,2.66,scattered clouds
135,Sredniy Ikorets,RU,2022-07-22 03:18:32,51.0675,39.7584,56.46,92,99,7.85,overcast clouds
136,Leningradskiy,RU,2022-07-22 03:18:33,69.3833,178.4167,35.44,99,100,6.31,overcast clouds
137,Arraial Do Cabo,BR,2022-07-22 03:15:55,-22.9661,-42.0278,70.39,86,2,14.94,clear sky
138,Pangody,RU,2022-07-22 03:18:33,65.85,74.4859,45.41,83,100,8.12,overcast clouds
139,Sitka,US,2022-07-22 03:15:29,57.0531,-135.33,55.29,88,100,3.44,light intensity drizzle
140,Hami,CN,2022-07-22 03:18:34,42.8,93.45,84.51,18,0,3.11,clear sky
141,Carutapera,BR,2022-07-22 03:18:34,-1.195,-46.02,74.34,92,31,4.88,scattered clouds
142,Tarakan,ID,2022-07-22 03:18:35,3.3,117.6333,83.7,79,40,4.61,scattered clouds
143,Kaduqli,SD,2022-07-22 03:18:35,11.0167,29.7167,70.32,83,100,3.13,overcast clouds
144,The Valley,AI,2022-07-22 03:16:10,18.217,-63.0578,82.26,77,97,20.4,overcast clouds
145,Hermanus,ZA,2022-07-22 03:18:36,-34.4187,19.2345,52.47,69,100,4.07,overcast clouds
146,Platanos,GR,2022-07-22 03:18:36,37.6667,21.6167,75.56,39,0,5.23,clear sky
147,Iqaluit,CA,2022-07-22 03:18:37,63.7506,-68.5145,40.73,93,20,0.0,few clouds
148,Bengkulu,ID,2022-07-22 03:18:37,-3.8004,102.2655,82.72,71,86,3.67,overcast clouds
149,Lebu,CL,2022-07-22 03:18:37,-37.6167,-73.65,52.09,93,100,13.49,moderate rain
150,Tekeli,KZ,2022-07-22 03:18:38,44.83,78.8239,85.57,21,0,2.39,clear sky
151,Alta Floresta,BR,2022-07-22 03:18:38,-9.8756,-56.0861,70.16,45,0,1.95,clear sky
152,Tigil,RU,2022-07-22 03:18:39,57.8,158.6667,75.49,40,5,11.81,clear sky
153,Yakeshi,CN,2022-07-22 03:18:39,49.2833,120.7333,82.06,48,4,5.28,clear sky
154,Saint George,US,2022-07-22 03:18:40,37.1041,-113.5841,103.95,13,0,9.22,clear sky
155,Padang,ID,2022-07-22 03:18:40,-0.9492,100.3543,84.25,67,88,1.99,overcast clouds
156,Norman Wells,CA,2022-07-22 03:18:40,65.282,-126.8329,69.84,78,75,4.61,broken clouds
157,Namibe,AO,2022-07-22 03:18:41,-15.1961,12.1522,61.09,90,0,5.14,clear sky
158,Hualmay,PE,2022-07-22 03:18:41,-11.0964,-77.6139,61.18,83,7,12.06,clear sky
159,Sakakah,SA,2022-07-22 03:18:41,29.9697,40.2064,83.77,21,0,6.55,clear sky
160,Itoman,JP,2022-07-22 03:18:42,26.1247,127.6694,91.78,76,20,11.5,few clouds
161,Ust-Omchug,RU,2022-07-22 03:18:42,61.15,149.6333,69.49,56,61,5.66,broken clouds
162,Itarema,BR,2022-07-22 03:18:43,-2.9248,-39.9167,77.22,78,62,13.18,broken clouds
163,Port Hedland,AU,2022-07-22 03:18:43,-20.3167,118.5667,82.45,47,2,5.75,clear sky
164,Gimli,CA,2022-07-22 03:18:44,50.6336,-96.9907,65.44,79,56,13.11,broken clouds
165,Lumeje,AO,2022-07-22 03:18:44,-11.55,20.7833,61.12,45,84,5.48,broken clouds
166,Hasaki,JP,2022-07-22 03:18:45,35.7333,140.8333,88.29,83,14,19.73,moderate rain
167,Dukat,RU,2022-07-22 03:18:45,62.55,155.55,59.94,40,2,10.31,clear sky
168,Tra Vinh,VN,2022-07-22 03:18:45,9.9347,106.3453,85.75,63,35,3.91,scattered clouds
169,Buta,CD,2022-07-22 03:18:46,2.7858,24.73,69.73,99,100,2.42,overcast clouds
170,Vestmanna,FO,2022-07-22 03:18:46,62.1564,-7.1664,45.52,100,75,0.0,broken clouds
171,Tuatapere,NZ,2022-07-22 03:18:47,-46.1333,167.6833,44.37,91,100,2.84,overcast clouds
172,Rio Grande,BR,2022-07-22 03:18:47,-32.035,-52.0986,58.95,99,100,5.23,light rain
173,San Lorenzo,PY,2022-07-22 03:18:48,-25.3333,-57.5333,76.59,57,0,7.0,clear sky
174,Ninh Binh,VN,2022-07-22 03:15:38,20.2539,105.975,86.22,71,100,3.36,overcast clouds
175,Mandalgovi,MN,2022-07-22 03:18:48,45.7625,106.2708,65.97,39,38,24.32,scattered clouds
176,Isla Mujeres,MX,2022-07-22 03:18:49,21.2311,-86.731,84.25,79,33,11.16,scattered clouds
177,Kahului,US,2022-07-22 03:18:49,20.8947,-156.47,84.22,67,0,26.46,clear sky
178,Rolla,US,2022-07-22 03:18:49,37.9514,-91.7713,81.01,60,0,4.61,clear sky
179,Launceston,AU,2022-07-22 03:15:57,-41.45,147.1667,58.15,64,40,14.97,scattered clouds
180,Kabalo,CD,2022-07-22 03:18:50,-6.05,26.9167,71.38,52,2,3.96,clear sky
181,Sarahan,IN,2022-07-22 03:18:50,31.5167,77.8,69.42,80,99,4.03,overcast clouds
182,Gazanjyk,TM,2022-07-22 03:18:51,39.2446,55.5154,83.64,54,0,11.83,clear sky
183,Chara,RU,2022-07-22 03:18:51,56.9064,118.2631,71.24,70,99,1.03,overcast clouds
184,Marsaxlokk,MT,2022-07-22 03:18:52,35.8419,14.5431,79.09,78,0,3.44,clear sky
185,Nelson Bay,AU,2022-07-22 03:18:52,-32.7167,152.15,64.99,75,70,15.99,broken clouds
186,Luderitz,NA,2022-07-22 03:18:53,-26.6481,15.1594,59.56,60,0,9.01,clear sky
187,Bluff,NZ,2022-07-22 03:18:53,-46.6,168.3333,44.8,71,98,8.16,overcast clouds
188,Sorong,ID,2022-07-22 03:18:53,-0.8833,131.25,82.33,78,44,15.73,scattered clouds
189,Maracas,BR,2022-07-22 03:18:01,-13.4411,-40.4308,55.36,96,29,3.65,scattered clouds
190,Fairbanks,US,2022-07-22 03:18:00,64.8378,-147.7164,66.54,58,75,6.91,light rain
191,Russell,US,2022-07-22 03:15:48,32.3502,-85.1999,74.48,94,20,5.75,few clouds
192,Chimoio,MZ,2022-07-22 03:18:54,-19.1164,33.4833,58.86,94,100,3.15,overcast clouds
193,Ambilobe,MG,2022-07-22 03:18:54,-13.2,49.05,64.27,72,1,4.65,clear sky
194,Coquimbo,CL,2022-07-22 03:18:55,-29.9533,-71.3436,55.13,76,100,0.0,overcast clouds
195,Yatou,CN,2022-07-22 03:18:55,37.15,122.3833,80.64,68,13,9.37,few clouds
196,Chokurdakh,RU,2022-07-22 03:18:56,70.6333,147.9167,61.5,26,84,6.64,broken clouds
197,Sawakin,SD,2022-07-22 03:18:56,19.1059,37.3321,89.58,48,11,6.58,few clouds
198,Nardaran,AZ,2022-07-22 03:18:57,40.5561,50.0056,78.44,69,0,23.02,clear sky
199,Rocha,UY,2022-07-22 03:18:57,-34.4833,-54.3333,46.49,94,100,2.82,overcast clouds
200,Cabo San Lucas,MX,2022-07-22 03:18:57,22.8909,-109.9124,91.62,53,3,4.0,clear sky
201,Grindavik,IS,2022-07-22 03:18:58,63.8424,-22.4338,51.75,100,100,2.3,light rain
202,Asfi,MA,2022-07-22 03:18:58,32.2994,-9.2372,73.29,84,40,21.05,scattered clouds
203,Nuevo Progreso,MX,2022-07-22 03:18:59,23.1667,-97.95,82.54,92,26,5.28,scattered clouds
204,Antalaha,MG,2022-07-22 03:18:59,-14.9003,50.2788,66.99,89,74,7.76,light rain
205,Gat,IL,2022-07-22 03:18:02,31.61,34.7642,75.88,100,0,1.12,clear sky
206,Lavrentiya,RU,2022-07-22 03:19:00,65.5833,-171.0,40.19,80,100,17.49,overcast clouds
207,Mahanje,TZ,2022-07-22 03:19:00,-9.9333,35.3333,53.73,95,11,0.58,few clouds
208,Kaitangata,NZ,2022-07-22 03:19:00,-46.2817,169.8464,44.73,84,100,2.44,overcast clouds
209,Murray Bridge,AU,2022-07-22 03:18:12,-35.1167,139.2667,63.12,64,100,16.02,light rain
210,Tshikapa,CD,2022-07-22 03:19:01,-6.4167,20.8,71.22,57,7,0.94,clear sky
211,Vila Velha,BR,2022-07-22 03:19:02,-20.3297,-40.2925,67.95,93,75,3.44,broken clouds
212,Rosarito,MX,2022-07-22 03:19:02,32.3333,-117.0333,71.67,73,19,7.63,few clouds
213,Dukhovnitskoye,RU,2022-07-22 03:19:03,52.4828,48.2137,62.67,85,44,5.5,scattered clouds
214,Abha,SA,2022-07-22 03:19:03,18.2164,42.5053,64.22,88,0,0.0,clear sky
215,Ondjiva,AO,2022-07-22 03:19:03,-17.0667,15.7333,51.96,42,0,6.06,clear sky
216,Antofagasta,CL,2022-07-22 03:19:04,-23.65,-70.4,58.28,87,49,5.55,scattered clouds
217,Camopi,GF,2022-07-22 03:19:04,3.1655,-52.3158,71.4,98,85,2.19,overcast clouds
218,Tecoanapa,MX,2022-07-22 03:19:05,16.5167,-98.75,80.74,83,26,3.22,scattered clouds
219,Devrek,TR,2022-07-22 03:19:05,41.2192,31.9558,59.85,92,25,4.25,scattered clouds
220,Maceio,BR,2022-07-22 03:19:05,-9.6658,-35.7353,74.64,88,75,6.91,broken clouds
221,Pevek,RU,2022-07-22 03:19:06,69.7008,170.3133,31.57,99,100,10.83,light snow
222,Grand-Santi,GF,2022-07-22 03:19:06,4.25,-54.3833,72.18,99,100,2.15,overcast clouds
223,Provideniya,RU,2022-07-22 03:19:07,64.3833,-173.3,46.51,81,75,25.01,broken clouds
224,Victor Harbor,AU,2022-07-22 03:19:07,-35.5667,138.6167,62.01,71,100,1.01,overcast clouds
225,Belmonte,BR,2022-07-22 03:19:07,-15.8631,-38.8828,70.47,87,10,3.13,clear sky
226,Sal Rei,CV,2022-07-22 03:19:08,16.1833,-22.9167,75.11,78,100,7.96,overcast clouds
227,Bykov,RU,2022-07-22 03:19:08,47.3167,142.55,61.59,89,100,3.6,overcast clouds
228,Kavaratti,IN,2022-07-22 03:19:09,10.5669,72.642,81.05,79,100,21.52,overcast clouds
229,Leshukonskoye,RU,2022-07-22 03:19:09,64.8989,45.7622,57.29,64,83,4.47,broken clouds
230,Zhigansk,RU,2022-07-22 03:19:10,66.7697,123.3711,59.65,90,100,19.42,overcast clouds
231,Ancud,CL,2022-07-22 03:18:24,-41.8697,-73.8203,40.23,93,100,5.66,overcast clouds
232,Ronne,DK,2022-07-22 03:19:10,55.1009,14.7066,64.31,94,75,5.75,broken clouds
233,Mangan,IN,2022-07-22 03:19:10,27.5167,88.5333,78.1,89,100,0.54,overcast clouds
234,Laguna,US,2022-07-22 03:15:23,38.421,-121.4238,94.32,31,0,9.22,clear sky
235,Nanning,CN,2022-07-22 03:19:11,22.8167,108.3167,88.25,70,37,8.05,scattered clouds
236,Mehamn,NO,2022-07-22 03:19:11,71.0357,27.8492,53.55,94,75,20.71,light intensity drizzle
237,Moussoro,TD,2022-07-22 03:19:12,13.6408,16.4901,83.91,62,100,7.94,overcast clouds
238,Natal,BR,2022-07-22 03:19:12,-5.795,-35.2094,75.42,94,75,3.44,broken clouds
239,Hofn,IS,2022-07-22 03:19:13,64.2539,-15.2082,52.12,78,16,3.42,few clouds
240,Lodja,CD,2022-07-22 03:19:13,-3.4833,23.4333,70.11,79,60,0.58,broken clouds
241,Maragogipe,BR,2022-07-22 03:19:14,-12.7778,-38.9194,68.95,95,74,3.62,light rain
242,Butaritari,KI,2022-07-22 03:19:14,3.0707,172.7902,81.54,76,53,7.49,broken clouds
243,Nampula,MZ,2022-07-22 03:19:15,-15.1165,39.2666,60.75,100,0,3.44,clear sky
244,Merauke,ID,2022-07-22 03:19:15,-8.4667,140.3333,79.34,74,49,11.99,scattered clouds
245,Sur,OM,2022-07-22 03:19:15,22.5667,59.5289,86.61,70,32,10.29,scattered clouds
246,Tainan,TW,2022-07-22 03:19:16,22.9908,120.2133,91.31,66,40,4.61,scattered clouds
247,Sechura,PE,2022-07-22 03:19:16,-5.5569,-80.8222,63.21,79,60,11.54,broken clouds
248,Salalah,OM,2022-07-22 03:19:17,17.0151,54.0924,75.29,94,100,6.91,overcast clouds
249,Cukai,MY,2022-07-22 03:19:17,4.25,103.4167,87.75,67,93,3.33,overcast clouds
250,Asau,RO,2022-07-22 03:19:18,46.4333,26.4,56.32,52,0,5.37,clear sky
251,Belaya Gora,RU,2022-07-22 03:19:18,68.5333,146.4167,65.73,32,0,9.62,clear sky
252,Hanko,FI,2022-07-22 03:19:18,59.8333,22.95,64.06,86,67,13.98,broken clouds
253,Lagoa,PT,2022-07-22 03:19:19,39.05,-27.9833,70.81,91,100,5.59,overcast clouds
254,Cangzhou,CN,2022-07-22 03:19:19,38.3167,116.8667,88.39,44,100,4.12,overcast clouds
255,Bougouni,ML,2022-07-22 03:19:20,11.417,-7.479,71.31,94,64,3.78,broken clouds
256,Cherskiy,RU,2022-07-22 03:19:20,68.75,161.3,47.71,37,99,12.95,overcast clouds
257,Sheridan,US,2022-07-22 03:19:21,44.8333,-106.9173,77.92,29,0,8.05,clear sky
258,Lompoc,US,2022-07-22 03:15:03,34.6391,-120.4579,60.85,89,100,11.5,mist
259,Brusque,BR,2022-07-22 03:19:21,-27.0981,-48.9175,67.05,98,92,2.15,overcast clouds
260,Tahoua,NE,2022-07-22 03:19:22,14.8888,5.2692,81.79,61,95,7.11,overcast clouds
261,Brigantine,US,2022-07-22 03:19:22,39.4101,-74.3646,81.0,81,40,8.05,scattered clouds
262,Bria,CF,2022-07-22 03:19:23,6.5423,21.9863,69.48,97,100,1.12,light rain
263,Adrar,MR,2022-07-22 03:19:23,20.5022,-10.0711,87.3,43,21,14.09,light rain
264,North Bend,US,2022-07-22 03:19:24,43.4065,-124.2243,64.24,90,100,8.05,overcast clouds
265,Porteirinha,BR,2022-07-22 03:19:24,-15.7433,-43.0283,63.68,57,5,5.23,clear sky
266,Victoria,HK,2022-07-22 03:18:11,22.2855,114.1577,93.96,68,0,4.0,clear sky
267,Saldanha,ZA,2022-07-22 03:19:25,-33.0117,17.9442,44.65,80,100,7.45,overcast clouds
268,Glasgow,GB,2022-07-22 03:17:16,55.8652,-4.2576,59.2,84,75,9.22,broken clouds
269,Vestmannaeyjar,IS,2022-07-22 03:19:25,63.4427,-20.2734,52.11,97,100,7.31,overcast clouds
270,Sikonge,TZ,2022-07-22 03:19:26,-5.6333,32.7667,59.99,68,5,7.92,clear sky
271,Nicoya,CR,2022-07-22 03:19:26,10.1483,-85.452,74.59,92,100,3.0,overcast clouds
272,Talnakh,RU,2022-07-22 03:19:27,69.4865,88.3972,65.21,58,29,11.61,scattered clouds
273,Willmar,US,2022-07-22 03:19:27,45.1219,-95.0433,75.15,53,0,0.0,clear sky
274,Strezhevoy,RU,2022-07-22 03:19:27,60.7333,77.5889,53.26,96,100,7.02,light rain
275,Biak,ID,2022-07-22 03:19:28,-0.9131,122.8766,81.18,75,37,8.5,scattered clouds
276,Aviles,ES,2022-07-22 03:19:28,43.5547,-5.9248,66.76,97,75,5.75,mist
277,Prince Rupert,CA,2022-07-22 03:19:28,54.3161,-130.3201,60.49,88,0,16.11,clear sky
278,Atasu,KZ,2022-07-22 03:19:29,48.6814,71.6433,75.06,37,30,12.1,scattered clouds
279,Ulladulla,AU,2022-07-22 03:19:29,-35.35,150.4667,56.3,76,60,9.73,broken clouds
280,Ivot,RU,2022-07-22 03:19:29,53.6756,34.1872,54.75,91,3,8.63,clear sky
281,Mecca,SA,2022-07-22 03:19:30,21.4267,39.8261,82.26,61,5,4.79,clear sky
282,Yelizovo,RU,2022-07-22 03:19:30,53.1873,158.3805,66.34,72,75,17.9,broken clouds
283,Bagdarin,RU,2022-07-22 03:19:31,54.4333,113.6,74.53,54,100,6.53,overcast clouds
284,Rorvik,NO,2022-07-22 03:19:31,64.8621,11.2373,52.9,94,100,19.71,overcast clouds
285,San Cristobal,VE,2022-07-22 03:19:31,7.7669,-72.225,73.58,97,99,3.18,overcast clouds
286,Zarate,AR,2022-07-22 03:19:32,-34.0981,-59.0286,46.83,96,100,3.0,overcast clouds
287,Ayan,RU,2022-07-22 03:19:32,56.45,138.1667,58.75,86,99,5.55,overcast clouds
288,Komsomolskiy,UZ,2022-07-22 03:19:33,40.4272,71.7189,92.12,22,0,4.61,clear sky
289,Necochea,AR,2022-07-22 03:15:07,-38.5473,-58.7368,47.28,38,100,6.93,overcast clouds
290,Am Timan,TD,2022-07-22 03:19:33,11.0297,20.2827,70.3,91,100,6.24,overcast clouds
291,Whitehorse,CA,2022-07-22 03:15:53,60.7161,-135.0538,63.37,42,40,19.57,scattered clouds
292,Port Elizabeth,ZA,2022-07-22 03:19:34,-33.918,25.5701,48.49,93,0,5.75,clear sky
293,Karaton,ID,2022-07-22 03:19:34,-6.3424,106.1045,85.55,61,56,0.56,broken clouds
294,Lisakovsk,KZ,2022-07-22 03:19:34,52.5369,62.4936,65.75,61,33,5.21,scattered clouds
295,Coahuayana,MX,2022-07-22 03:19:35,18.7333,-103.6833,79.99,91,100,1.19,overcast clouds
296,Atakpame,TG,2022-07-22 03:19:35,7.5333,1.1333,67.51,95,49,3.36,scattered clouds
297,Kismayo,SO,2022-07-22 03:19:36,-0.3582,42.5454,74.71,82,76,19.53,light rain
298,Guerrero Negro,MX,2022-07-22 03:19:36,27.9769,-114.0611,68.72,81,0,18.03,clear sky
299,Kavieng,PG,2022-07-22 03:19:36,-2.5744,150.7967,82.56,76,100,10.02,light rain
300,Gelibolu,TR,2022-07-22 03:19:37,40.4103,26.6708,64.26,81,0,8.52,clear sky
301,Geraldton,AU,2022-07-22 03:19:37,-28.7667,114.6,61.21,77,100,10.36,overcast clouds
302,Manta,EC,2022-07-22 03:19:38,-0.95,-80.7333,71.38,83,75,5.75,broken clouds
303,Villanueva De Cordoba,ES,2022-07-22 03:19:38,38.3228,-4.6287,67.89,52,16,2.73,few clouds
304,Bulgan,MN,2022-07-22 03:19:38,48.8125,103.5347,49.95,94,100,1.57,overcast clouds
305,Arkhangelsk,RU,2022-07-22 03:19:39,64.5401,40.5433,57.31,100,100,0.0,fog
306,Gizo,SB,2022-07-22 03:19:39,-8.103,156.8419,84.49,65,95,7.02,overcast clouds
307,Great Yarmouth,GB,2022-07-22 03:19:40,52.6083,1.7305,58.95,76,81,7.16,broken clouds
308,Indore,IN,2022-07-22 03:15:18,22.7179,75.8333,75.38,94,75,9.22,haze
309,Zhangye,CN,2022-07-22 03:19:40,38.9342,100.4517,75.61,23,0,6.04,clear sky
310,Sitrah,BH,2022-07-22 03:19:41,26.1547,50.6206,94.35,74,0,3.44,clear sky
311,Liwale,TZ,2022-07-22 03:19:41,-9.7667,37.9333,58.66,96,0,3.36,clear sky
312,Kouroussa,GN,2022-07-22 03:18:09,10.65,-9.8833,70.2,96,99,3.94,overcast clouds
313,San Francisco,US,2022-07-22 03:17:09,37.7749,-122.4194,70.32,86,20,20.71,few clouds
314,Olafsvik,IS,2022-07-22 03:19:42,64.8945,-23.7142,51.73,90,100,4.65,overcast clouds
315,Xining,CN,2022-07-22 03:19:42,36.6167,101.7667,60.69,58,0,2.75,clear sky
316,Joao Pinheiro,BR,2022-07-22 03:19:43,-17.7425,-46.1725,62.98,52,21,5.75,few clouds
317,Makakilo City,US,2022-07-22 03:19:43,21.3469,-158.0858,86.32,53,0,14.97,clear sky
318,Santa Rosalia,MX,2022-07-22 03:19:44,27.3167,-112.2833,91.18,37,0,7.18,clear sky
319,Shushtar,IR,2022-07-22 03:19:44,32.0455,48.8567,93.43,47,0,4.59,clear sky
320,San Marcos,US,2022-07-22 03:18:42,33.1434,-117.1661,76.57,79,0,8.05,clear sky
321,Ostrovnoy,RU,2022-07-22 03:19:45,68.0531,39.5131,62.71,84,51,7.43,broken clouds
322,Stornoway,GB,2022-07-22 03:17:22,58.2093,-6.3865,51.93,92,75,2.3,broken clouds
323,Polunochnoye,RU,2022-07-22 03:19:45,60.8697,60.4153,65.44,60,50,9.04,scattered clouds
324,Bessemer,US,2022-07-22 03:19:46,33.4018,-86.9544,73.71,96,0,5.75,clear sky
325,Sabang,ID,2022-07-22 03:19:46,5.8933,95.3214,83.3,71,100,9.57,overcast clouds
326,Cabra,ES,2022-07-22 03:19:46,37.4725,-4.4421,73.36,55,19,3.58,few clouds
327,Arandis,NA,2022-07-22 03:19:47,-22.4167,14.9667,65.07,26,0,12.3,clear sky
328,Portland,US,2022-07-22 03:15:43,45.5234,-122.6762,81.01,60,40,8.05,scattered clouds
329,Zaozerne,UA,2022-07-22 03:19:47,45.1582,33.2787,71.24,72,4,11.74,light rain
330,Xiaoweizhai,CN,2022-07-22 03:19:48,26.1903,107.5125,80.06,72,98,11.56,overcast clouds
331,Hailar,CN,2022-07-22 03:19:48,49.2,119.7,83.57,41,17,5.41,few clouds
332,Mogadishu,SO,2022-07-22 03:19:49,2.0371,45.3438,75.27,86,43,19.42,light rain
333,Zaoyang,CN,2022-07-22 03:19:49,32.1272,112.7542,89.28,66,91,14.07,overcast clouds
334,Tonj,SS,2022-07-22 03:19:49,7.2737,28.6822,68.7,92,99,1.48,overcast clouds
335,Amahai,ID,2022-07-22 03:19:50,-3.3333,128.9167,80.2,66,81,11.48,broken clouds
336,Dali,CN,2022-07-22 03:19:50,25.7,100.1833,72.28,70,100,3.15,overcast clouds
337,Maltahohe,NA,2022-07-22 03:19:51,-24.8333,16.9833,47.53,42,0,3.98,clear sky
338,Puerto Varas,CL,2022-07-22 03:19:51,-41.3195,-72.9854,39.42,100,100,4.61,overcast clouds
339,Labuhan,ID,2022-07-22 03:19:51,-6.8844,112.2051,83.79,64,100,6.35,overcast clouds
340,Hun,LY,2022-07-22 03:19:52,29.1268,15.9477,72.57,63,0,4.47,clear sky
341,Jinchang,CN,2022-07-22 03:19:52,38.4953,102.1739,73.38,25,0,4.05,clear sky
342,Qarqin,AF,2022-07-22 03:19:53,37.4185,66.0436,96.96,10,0,5.28,clear sky
343,Abaza,RU,2022-07-22 03:19:53,52.655,90.0928,65.32,80,100,6.06,light rain
344,Ribeira Brava,PT,2022-07-22 03:19:53,32.65,-17.0667,68.63,81,9,7.96,clear sky
345,Chapais,CA,2022-07-22 03:19:54,49.7834,-74.8492,62.38,97,100,11.72,overcast clouds
346,At-Bashi,KG,2022-07-22 03:19:54,41.1702,75.8106,74.08,27,0,0.45,clear sky
347,Ilulissat,GL,2022-07-22 03:19:55,69.2167,-51.1,50.02,87,75,5.75,broken clouds
348,Cookeville,US,2022-07-22 03:19:55,36.1628,-85.5016,76.64,97,75,0.0,broken clouds
349,Juneau,US,2022-07-22 03:19:28,58.3019,-134.4197,60.22,95,100,11.5,overcast clouds
350,Pacific Grove,US,2022-07-22 03:19:57,36.6177,-121.9166,67.01,88,75,9.22,broken clouds
351,Vostok,RU,2022-07-22 03:19:57,46.4856,135.8833,63.73,93,100,2.73,overcast clouds
352,Pabrade,LT,2022-07-22 03:19:58,55.0,25.7833,60.26,85,0,1.9,clear sky
353,Tartagal,AR,2022-07-22 03:19:58,-22.5164,-63.8013,64.81,68,4,3.62,clear sky
354,Sinnamary,GF,2022-07-22 03:19:59,5.3833,-52.95,77.07,88,68,7.31,broken clouds
355,Watsa,CD,2022-07-22 03:19:59,3.0372,29.5355,61.57,98,47,2.28,scattered clouds
356,Baoqing,CN,2022-07-22 03:19:59,46.3317,132.2111,75.0,62,78,11.23,broken clouds
357,Dickinson,US,2022-07-22 03:20:00,29.4608,-95.0513,87.75,82,20,10.36,few clouds
358,Japura,ID,2022-07-22 03:20:00,-0.3167,102.35,80.58,89,95,3.49,overcast clouds
359,Soyo,AO,2022-07-22 03:20:01,-6.1349,12.3689,69.57,84,92,8.32,overcast clouds
360,Sao Joao Da Barra,BR,2022-07-22 03:20:01,-21.6403,-41.0511,69.44,88,2,6.13,clear sky
361,Mount Gambier,AU,2022-07-22 03:20:02,-37.8333,140.7667,56.12,67,100,12.12,light rain
362,Nome,US,2022-07-22 03:20:02,64.5011,-165.4064,50.07,76,100,10.36,overcast clouds
363,Vidim,RU,2022-07-22 03:20:03,56.4088,103.1106,73.72,44,96,5.26,overcast clouds
364,Zverinogolovskoye,RU,2022-07-22 03:20:03,54.4586,64.8542,61.88,82,20,9.73,few clouds
365,Sooke,CA,2022-07-22 03:20:04,48.3746,-123.7276,75.02,100,30,35.68,scattered clouds
366,Vilhena,BR,2022-07-22 03:20:04,-12.7406,-60.1458,66.87,52,2,2.75,clear sky
367,Quesnel,CA,2022-07-22 03:20:05,52.9999,-122.5029,75.7,41,0,2.3,clear sky
368,Srednekolymsk,RU,2022-07-22 03:20:05,67.45,153.6833,60.75,34,4,6.76,clear sky
369,Sabha,LY,2022-07-22 03:20:05,27.0377,14.4283,76.39,35,0,10.42,clear sky
370,Constitucion,CL,2022-07-22 03:20:06,-35.3333,-72.4167,51.64,84,29,7.14,scattered clouds
371,Irbeyskoye,RU,2022-07-22 03:20:06,55.6428,95.4522,73.87,48,30,6.55,scattered clouds
372,Heihe,CN,2022-07-22 03:20:07,50.2441,127.4902,81.18,51,13,9.06,few clouds
373,Llata,PE,2022-07-22 03:20:07,-9.4167,-76.7833,46.74,85,23,1.52,few clouds
374,Puruliya,IN,2022-07-22 03:20:08,23.3333,86.3667,85.24,69,100,6.44,overcast clouds
375,Palmer,US,2022-07-22 03:20:08,42.1584,-72.3287,79.25,80,20,3.44,few clouds
376,Nam Som,TH,2022-07-22 03:20:09,17.7704,102.1895,78.1,98,100,6.4,light rain
377,Pec,XK,2022-07-22 03:20:09,42.6591,20.2883,66.83,51,0,5.55,clear sky
378,Ariquemes,BR,2022-07-22 03:20:09,-9.9133,-63.0408,73.08,56,0,0.65,clear sky
379,Beringovskiy,RU,2022-07-22 03:20:10,63.05,179.3167,49.71,68,72,5.08,broken clouds
380,Krasnoselkup,RU,2022-07-22 03:20:10,65.7,82.4667,49.06,92,100,2.39,light rain
381,Mkushi,ZM,2022-07-22 03:20:11,-13.6202,29.3939,55.96,77,8,6.76,clear sky
382,Chignahuapan,MX,2022-07-22 03:20:11,19.8333,-98.0333,56.66,92,91,2.77,overcast clouds
383,Parana,AR,2022-07-22 03:20:12,-31.732,-60.5238,58.55,88,100,6.33,light rain
384,San Patricio,US,2022-07-22 03:20:12,28.017,-97.5169,84.29,73,3,13.22,clear sky
385,Jalu,LY,2022-07-22 03:20:13,29.0331,21.5482,73.72,40,0,8.37,clear sky
386,Te Anau,NZ,2022-07-22 03:20:13,-45.4167,167.7167,44.6,84,63,1.68,broken clouds
387,Amapa,BR,2022-07-22 03:20:14,1.0,-52.0,72.46,94,98,2.15,overcast clouds
388,Barsovo,RU,2022-07-22 03:20:14,61.1667,73.1667,60.93,69,95,9.46,overcast clouds
389,Sibolga,ID,2022-07-22 03:20:14,1.7427,98.7792,86.02,62,95,2.86,moderate rain
390,Marfino,RU,2022-07-22 03:20:15,55.7028,37.3822,62.94,76,0,13.42,clear sky
391,Yar-Sale,RU,2022-07-22 03:20:15,66.8333,70.8333,43.54,92,100,13.02,light rain
392,Penzance,GB,2022-07-22 03:20:16,50.1186,-5.5371,57.88,75,81,12.73,broken clouds
393,Coihaique,CL,2022-07-22 03:20:16,-45.5752,-72.0662,24.75,100,20,3.44,few clouds
394,Kenai,US,2022-07-22 03:20:17,60.5544,-151.2583,54.09,89,100,4.61,light rain
395,Lewistown,US,2022-07-22 03:20:18,40.5992,-77.5714,74.16,100,0,0.0,clear sky
396,Kamenka,RU,2022-07-22 03:20:18,51.3223,42.7678,55.99,95,100,6.42,light rain
397,Sept-Iles,CA,2022-07-22 03:20:18,50.2001,-66.3821,60.06,95,100,10.36,heavy intensity rain
398,Shambu,ET,2022-07-22 03:20:19,9.5667,37.1,49.95,94,85,1.1,overcast clouds
399,Fukue,JP,2022-07-22 03:20:19,32.6881,128.8419,82.76,65,40,6.91,scattered clouds
400,Zaragoza,ES,2022-07-22 03:17:59,41.6561,-0.8773,80.02,69,0,11.5,clear sky
401,Honningsvag,NO,2022-07-22 03:20:20,70.9821,25.9704,53.35,87,100,14.97,overcast clouds
402,Rome,US,2022-07-22 03:16:23,34.257,-85.1647,77.04,92,100,3.44,overcast clouds
403,Bud,US,2022-07-22 03:20:20,39.447,-86.1758,78.67,79,0,7.09,clear sky
404,Klaksvik,FO,2022-07-22 03:20:21,62.2266,-6.589,47.32,87,100,6.91,overcast clouds
405,Tarko-Sale,RU,2022-07-22 03:20:21,64.9225,77.785,49.19,65,100,5.73,overcast clouds
406,Flinders,AU,2022-07-22 03:20:21,-34.5833,150.8552,63.18,74,66,4.0,light rain
407,Tromso,NO,2022-07-22 03:20:22,69.6496,18.957,54.37,93,100,1.14,overcast clouds
408,Shache,CN,2022-07-22 03:20:22,38.4167,77.2406,87.13,12,0,5.86,clear sky
409,Takestan,IR,2022-07-22 03:20:23,36.0696,49.6959,69.93,64,3,8.14,clear sky
410,Marystown,CA,2022-07-22 03:20:23,47.1666,-55.1483,59.86,100,8,1.99,clear sky
411,Ngunguru,NZ,2022-07-22 03:20:23,-35.6167,174.5,55.42,74,53,7.78,broken clouds
412,Tarrafal,CV,2022-07-22 03:20:24,15.2833,-23.7667,77.79,84,100,6.98,overcast clouds
413,Shelburne,CA,2022-07-22 03:20:24,44.0787,-80.2041,70.25,75,0,7.27,clear sky
414,Mehran,IR,2022-07-22 03:20:25,33.1222,46.1646,96.13,14,0,6.4,clear sky
415,Bengbu,CN,2022-07-22 03:20:25,32.9408,117.3608,89.87,62,81,5.57,broken clouds
416,Preobrazheniye,RU,2022-07-22 03:20:25,42.9019,133.9064,65.62,91,100,8.9,overcast clouds
417,Aquiraz,BR,2022-07-22 03:20:26,-3.9014,-38.3911,73.49,88,96,7.9,overcast clouds
418,Antibes,FR,2022-07-22 03:20:26,43.5624,7.1278,78.28,67,40,8.05,scattered clouds
419,Sorland,NO,2022-07-22 03:20:27,67.667,12.6934,51.66,90,100,21.68,overcast clouds
420,La Asuncion,VE,2022-07-22 03:20:27,11.0333,-63.8628,78.53,94,5,8.05,clear sky
421,Ciudad Bolivar,VE,2022-07-22 03:19:14,8.1222,-63.5497,76.98,91,100,10.85,overcast clouds
422,Kamaishi,JP,2022-07-22 03:19:07,39.2667,141.8833,72.25,99,100,7.87,light rain
423,Souillac,MU,2022-07-22 03:20:28,-20.5167,57.5167,69.66,72,28,13.85,scattered clouds
424,Los Llanos De Aridane,ES,2022-07-22 03:20:28,28.6585,-17.9182,67.75,83,40,19.57,scattered clouds
425,Makueni,KE,2022-07-22 03:20:29,-1.8041,37.6203,57.31,90,71,1.54,broken clouds
426,Abalak,RU,2022-07-22 03:20:29,58.1286,68.5944,59.72,62,23,7.23,few clouds
427,Mahebourg,MU,2022-07-22 03:20:30,-20.4081,57.7,69.26,71,70,17.11,broken clouds
428,Baracoa,CU,2022-07-22 03:20:30,20.3467,-74.4958,80.42,87,80,10.07,broken clouds
429,Pudozh,RU,2022-07-22 03:20:31,61.8099,36.5345,64.67,79,96,3.94,overcast clouds
430,Aykhal,RU,2022-07-22 03:20:31,66.0,111.5,60.08,72,100,7.61,overcast clouds
431,Tabatinga,BR,2022-07-22 03:20:31,-4.2525,-69.9381,73.49,100,0,0.0,clear sky
432,Middelburg,ZA,2022-07-22 03:20:32,-25.7751,29.4648,48.83,66,7,4.32,clear sky
433,Gamba,GA,2022-07-22 03:20:32,-2.65,10.0,70.75,91,92,7.31,overcast clouds
434,Garowe,SO,2022-07-22 03:20:33,8.4054,48.4845,73.63,62,98,21.65,overcast clouds
435,Ejido,VE,2022-07-22 03:20:33,8.5514,-71.2375,65.86,87,99,5.91,overcast clouds
436,Hovd,MN,2022-07-22 03:20:34,48.0056,91.6419,71.51,30,47,3.22,scattered clouds
437,Dromolaxia,CY,2022-07-22 03:20:34,34.8761,33.586,79.68,69,0,5.75,clear sky
438,Don Sak,TH,2022-07-22 03:20:34,9.3168,99.6918,91.29,78,100,5.37,overcast clouds
439,Port Macquarie,AU,2022-07-22 03:20:35,-31.4333,152.9167,63.9,94,40,2.3,scattered clouds
440,College,US,2022-07-22 03:20:35,64.8569,-147.8028,66.52,58,75,6.91,light rain
441,Isangel,VU,2022-07-22 03:20:36,-19.55,169.2667,80.98,66,19,13.42,few clouds
442,Zarichne,UA,2022-07-22 03:20:36,51.8126,26.129,60.01,94,0,4.92,clear sky
443,Bonavista,CA,2022-07-22 03:20:36,48.6499,-53.1147,55.45,94,93,1.77,overcast clouds
444,Cockburn Town,TC,2022-07-22 03:20:37,21.4612,-71.1419,82.26,82,9,20.96,clear sky
445,Tezu,IN,2022-07-22 03:20:37,27.9167,96.1667,76.86,98,100,1.21,light rain
446,Hokitika,NZ,2022-07-22 03:20:38,-42.7167,170.9667,54.3,47,5,5.88,clear sky
447,Cayenne,GF,2022-07-22 03:20:38,4.9333,-52.3333,79.09,1,66,2.3,broken clouds
448,Faya,SA,2022-07-22 03:20:38,18.3851,42.4509,64.51,43,17,3.27,few clouds
449,Cuamba,MZ,2022-07-22 03:20:39,-14.8031,36.5372,58.53,77,2,1.7,clear sky
450,Slave Lake,CA,2022-07-22 03:20:39,55.2834,-114.769,66.18,63,0,9.22,clear sky
451,Byron Bay,AU,2022-07-22 03:20:40,-28.65,153.6167,59.7,85,100,20.71,moderate rain
452,Poum,NC,2022-07-22 03:20:40,-20.2333,164.0167,77.59,82,100,21.18,overcast clouds
453,Gusau,NG,2022-07-22 03:20:41,12.1628,6.6614,75.61,78,96,5.68,overcast clouds
454,Naze,JP,2022-07-22 03:20:41,28.3667,129.4833,86.92,76,28,13.02,scattered clouds
455,Kedrovyy,RU,2022-07-22 03:20:41,56.1667,91.8167,64.87,71,100,6.55,light rain
456,Santa Maria,BR,2022-07-22 03:20:42,-29.6842,-53.8069,63.7,100,0,4.61,clear sky
457,Tilichiki,RU,2022-07-22 03:20:42,60.4667,166.1,64.45,44,10,1.34,clear sky
458,Kadoma,JP,2022-07-22 03:20:43,34.7333,135.5833,89.6,54,75,12.66,broken clouds
459,Cessnock,AU,2022-07-22 03:17:33,-32.8333,151.35,65.43,67,44,9.42,scattered clouds
460,Oranjestad,AW,2022-07-22 03:16:50,12.524,-70.027,82.35,83,20,19.57,few clouds
461,Ust-Tsilma,RU,2022-07-22 03:20:43,65.441,52.1498,54.86,47,46,5.7,scattered clouds
462,Muli,MV,2022-07-22 03:20:44,2.9167,73.5667,82.44,74,99,20.78,light rain
463,Bandarbeyla,SO,2022-07-22 03:20:44,9.4942,50.8122,76.95,71,31,23.71,scattered clouds
464,Marsh Harbour,BS,2022-07-22 03:20:45,26.5412,-77.0636,82.8,75,2,16.2,clear sky
465,Koraput,IN,2022-07-22 03:20:45,18.8167,82.7167,70.72,95,100,5.5,overcast clouds
466,Nadvoitsy,RU,2022-07-22 03:20:45,63.8667,34.3167,65.43,71,100,4.83,overcast clouds
467,Sri Aman,MY,2022-07-22 03:20:46,1.2376,111.4621,80.65,83,40,0.0,scattered clouds
468,Aleksandrovka,UA,2022-07-22 03:20:46,46.8383,32.7612,66.16,55,42,7.83,scattered clouds
469,Oksfjord,NO,2022-07-22 03:20:46,70.2396,22.3479,55.47,84,86,3.04,overcast clouds
470,Bonthe,SL,2022-07-22 03:20:47,7.5264,-12.505,76.28,82,99,10.31,light rain
471,Dingle,PH,2022-07-22 03:20:47,10.9995,122.6711,87.04,72,39,8.66,scattered clouds
472,Kangly,RU,2022-07-22 03:20:48,44.2544,43.0308,62.65,88,84,7.0,broken clouds
473,Singkang,MY,2022-07-22 03:20:48,2.1006,102.7994,82.94,78,100,2.01,overcast clouds
474,Meridian,US,2022-07-22 03:18:45,43.6121,-116.3915,91.18,23,0,5.75,clear sky
475,Gigmoto,PH,2022-07-22 03:20:49,13.7796,124.39,87.49,69,91,7.65,overcast clouds
476,Kruisfontein,ZA,2022-07-22 03:20:49,-34.0033,24.7314,49.05,73,72,6.98,broken clouds
477,Barraute,CA,2022-07-22 03:20:49,48.4335,-77.6328,62.87,96,95,8.57,overcast clouds
478,Marsa Matruh,EG,2022-07-22 03:20:50,31.3525,27.2453,74.37,66,0,9.84,clear sky
479,Shirokiy,RU,2022-07-22 03:20:50,49.758,129.523,74.3,66,82,6.11,broken clouds
480,Doka,SD,2022-07-22 03:20:51,13.5167,35.7667,70.12,85,74,6.33,broken clouds
481,Puerto Madero,MX,2022-07-22 03:20:51,14.7208,-92.4215,75.4,100,75,0.0,broken clouds
482,Ulaanbaatar,MN,2022-07-22 03:20:52,47.9077,106.8832,57.33,77,75,17.9,light rain
483,Kidero,RU,2022-07-22 03:20:52,42.1932,45.9614,53.85,94,47,0.36,light rain
484,Balkanabat,TM,2022-07-22 03:20:52,39.5108,54.3671,84.42,49,0,6.44,clear sky
485,Bilibino,RU,2022-07-22 03:20:53,68.0546,166.4372,47.61,64,100,17.22,overcast clouds
486,Oranjemund,NA,2022-07-22 03:20:53,-28.55,16.4333,54.16,83,0,5.86,clear sky
487,Zhanaozen,KZ,2022-07-22 03:20:54,43.3,52.8,85.23,30,19,21.47,few clouds
488,Kerman,IR,2022-07-22 03:20:54,30.2832,57.0788,71.46,20,0,0.0,clear sky
489,Road Town,VG,2022-07-22 03:20:54,18.4167,-64.6167,80.69,77,21,18.07,few clouds
490,Togur,RU,2022-07-22 03:20:55,58.3631,82.8265,60.15,92,100,2.48,overcast clouds
491,Okato,NZ,2022-07-22 03:20:55,-39.2,173.8833,47.68,64,31,9.04,scattered clouds
492,La Ronge,CA,2022-07-22 03:20:56,55.1001,-105.2842,62.85,63,40,8.05,scattered clouds
493,Pasil,PH,2022-07-22 03:20:56,17.3833,121.1333,83.98,51,0,3.51,clear sky
494,Cap Malheureux,MU,2022-07-22 03:20:56,-19.9842,57.6142,69.48,74,27,8.99,scattered clouds
495,Warrnambool,AU,2022-07-22 03:20:57,-38.3833,142.4833,58.8,67,100,17.09,light rain
496,Rio Pomba,BR,2022-07-22 03:20:57,-21.2747,-43.1792,59.74,89,5,1.41,clear sky
497,Olinda,BR,2022-07-22 03:20:58,-8.0089,-34.8553,73.13,88,40,5.75,scattered clouds
498,Akyab,MM,2022-07-22 03:20:58,20.15,92.9,83.7,79,100,10.13,overcast clouds
499,Nabire,ID,2022-07-22 03:20:59,-3.3667,135.4833,84.49,69,16,4.25,few clouds
500,Irece,BR,2022-07-22 03:20:59,-11.3042,-41.8558,63.66,76,9,12.44,clear sky
501,Acarau,BR,2022-07-22 03:21:00,-2.8856,-40.12,76.91,79,57,12.8,broken clouds
502,Broome,US,2022-07-22 03:21:00,42.2506,-75.833,73.2,82,4,3.15,clear sky
503,Paamiut,GL,2022-07-22 03:21:00,61.994,-49.6678,48.11,79,2,4.05,clear sky
504,Roma,US,2022-07-22 03:21:01,43.2128,-75.4557,74.88,92,20,1.99,few clouds
505,Kangaatsiaq,GL,2022-07-22 03:21:01,68.3065,-53.4641,42.8,90,99,11.21,overcast clouds
506,Albufeira,PT,2022-07-22 03:21:02,37.0882,-8.2503,75.04,51,0,6.08,clear sky
507,Saint-Leu,RE,2022-07-22 03:21:02,-21.15,55.2833,67.03,65,15,2.57,few clouds
508,Gazojak,TM,2022-07-22 03:21:02,41.1875,61.4036,97.68,13,0,12.53,clear sky
509,Cascais,PT,2022-07-22 03:21:03,38.6979,-9.4215,67.46,72,44,21.0,scattered clouds
510,Voh,NC,2022-07-22 03:21:03,-20.9667,164.7,82.13,65,100,8.1,overcast clouds
511,Todos Santos,MX,2022-07-22 03:21:04,23.45,-110.2167,91.31,79,22,8.79,few clouds
512,Owando,CG,2022-07-22 03:21:04,-0.4819,15.8999,71.87,91,99,3.02,overcast clouds
513,Tomatlan,MX,2022-07-22 03:21:05,19.9333,-105.25,80.83,89,83,0.87,broken clouds
514,Churapcha,RU,2022-07-22 03:21:05,62.0025,132.4325,80.73,50,63,5.79,broken clouds
515,Arman,RU,2022-07-22 03:21:06,59.7,150.1667,77.02,71,94,5.53,overcast clouds
516,Ahmadpur Sial,PK,2022-07-22 03:21:06,30.6754,71.7483,84.56,72,100,10.94,moderate rain
517,Eskisehir,TR,2022-07-22 03:18:43,39.7767,30.5206,55.27,87,0,2.3,clear sky
518,Nefteyugansk,RU,2022-07-22 03:17:15,61.0998,72.6035,56.64,67,87,11.05,overcast clouds
519,Port Blair,IN,2022-07-22 03:20:28,11.6667,92.75,84.24,84,75,6.91,broken clouds
520,Northport,US,2022-07-22 03:21:07,33.229,-87.5772,75.13,91,20,9.22,few clouds
521,Montelibano,CO,2022-07-22 03:21:07,7.9829,-75.4229,76.05,92,100,5.26,overcast clouds
522,Capitan Bado,PY,2022-07-22 03:21:08,-23.2667,-55.5333,68.92,44,92,6.89,overcast clouds
523,Port Hardy,CA,2022-07-22 03:21:08,50.6996,-127.4199,59.18,72,20,12.66,few clouds
524,Aden,YE,2022-07-22 03:21:09,12.7794,45.0367,81.46,80,97,10.92,overcast clouds
525,Manoel Urbano,BR,2022-07-22 03:21:09,-8.8389,-69.2597,73.08,62,8,1.95,clear sky
526,Lukulu,ZM,2022-07-22 03:21:09,-14.3707,23.242,62.4,48,73,7.78,broken clouds
527,Sao Sebastiao,BR,2022-07-22 03:21:10,-23.76,-45.4097,66.29,93,24,5.79,few clouds
528,Simga,IN,2022-07-22 03:21:10,21.6333,81.7,82.38,75,100,5.26,overcast clouds
529,Rafaela,AR,2022-07-22 03:21:11,-31.2503,-61.4867,55.99,63,80,4.0,light rain
530,Barstow,US,2022-07-22 03:21:11,34.8986,-117.0228,99.59,14,100,19.22,overcast clouds
531,Enshi,CN,2022-07-22 03:21:11,30.3,109.4833,86.23,67,100,5.64,overcast clouds
532,Chengde,CN,2022-07-22 03:21:12,40.9725,117.9361,86.76,42,71,5.19,broken clouds
533,Bubaque,GW,2022-07-22 03:21:12,11.2833,-15.8333,78.57,85,100,17.43,light rain
534,Sarh,TD,2022-07-22 03:21:13,9.1429,18.3923,72.18,90,97,1.68,light rain
535,Christiana,ZA,2022-07-22 03:21:13,-27.914,25.1611,50.88,49,0,7.34,clear sky
536,Champerico,GT,2022-07-22 03:21:13,14.3,-91.9167,81.66,79,100,3.33,overcast clouds
537,Pinega,RU,2022-07-22 03:21:14,64.7001,43.3936,57.61,68,72,3.36,broken clouds
538,Vao,NC,2022-07-22 03:21:14,-22.6667,167.4833,74.07,88,100,18.23,overcast clouds
539,Pitea,SE,2022-07-22 03:21:14,65.3172,21.4794,60.89,80,100,6.31,overcast clouds
540,Sao Domingos Do Maranhao,BR,2022-07-22 03:21:15,-5.5758,-44.3853,72.88,57,39,4.23,scattered clouds
541,Deogarh,IN,2022-07-22 03:21:15,21.5333,84.7333,82.63,80,100,1.99,overcast clouds
542,Falmouth,GB,2022-07-22 03:21:16,50.1544,-5.0711,58.1,77,75,4.61,broken clouds
543,Magistralnyy,RU,2022-07-22 03:21:16,56.1725,107.4458,69.94,60,100,3.18,overcast clouds
544,San Rafael,AR,2022-07-22 03:19:33,-34.6177,-68.3301,49.71,53,31,5.44,scattered clouds
545,Roald,NO,2022-07-22 03:21:17,62.5833,6.1333,55.17,93,100,4.61,overcast clouds
546,Barinas,VE,2022-07-22 03:21:17,8.6226,-70.2075,73.44,100,99,2.3,overcast clouds
547,Egvekinot,RU,2022-07-22 03:21:17,66.3167,-179.1667,47.41,51,96,8.59,overcast clouds
548,Cadiz,ES,2022-07-22 03:21:18,36.5,-5.75,75.13,71,21,6.78,few clouds
549,Analipsis,GR,2022-07-22 03:21:18,35.3167,25.5667,79.11,66,0,11.07,clear sky
550,Susanville,US,2022-07-22 03:21:19,40.4163,-120.653,84.09,13,0,10.36,clear sky
551,Poquoson,US,2022-07-22 03:21:19,37.1224,-76.3458,78.98,94,40,5.75,scattered clouds
552,Fort Nelson,CA,2022-07-22 03:18:13,58.8053,-122.7002,65.79,48,40,5.75,scattered clouds
553,Riviere-Au-Renard,CA,2022-07-22 03:21:20,48.9957,-64.3971,68.29,87,99,10.49,overcast clouds
554,Peleduy,RU,2022-07-22 03:21:20,59.6289,112.7406,78.4,40,92,2.37,overcast clouds
555,Alice Springs,AU,2022-07-22 03:21:21,-23.7,133.8833,72.95,18,0,3.44,clear sky
556,Grimshaw,CA,2022-07-22 03:21:21,56.1834,-117.6027,62.22,55,20,4.61,few clouds
557,Awbari,LY,2022-07-22 03:21:21,26.5921,12.7805,76.98,32,0,8.12,clear sky
558,Turukhansk,RU,2022-07-22 03:21:22,65.8167,87.9833,67.33,61,81,11.88,broken clouds
559,Kodinsk,RU,2022-07-22 03:21:22,58.6881,99.1844,69.87,64,98,5.3,overcast clouds
560,Chicama,PE,2022-07-22 03:21:23,-7.8447,-79.1469,57.74,84,45,6.04,scattered clouds
561,Kati,ML,2022-07-22 03:21:23,12.7441,-8.0726,74.61,93,85,4.83,overcast clouds
562,Paratinga,BR,2022-07-22 03:21:24,-12.6906,-43.1842,69.91,56,0,4.5,clear sky
563,Dilla,ET,2022-07-22 03:21:24,6.41,38.31,60.67,86,100,3.85,light rain
564,Carbonia,IT,2022-07-22 03:21:24,39.1672,8.5222,75.0,49,0,3.24,clear sky
565,West Fargo,US,2022-07-22 03:16:47,46.875,-96.9004,69.85,82,0,8.05,clear sky
566,Touros,BR,2022-07-22 03:16:48,-5.1989,-35.4608,72.93,90,100,8.46,light rain
567,Beloha,MG,2022-07-22 03:21:25,-25.1667,45.05,61.74,81,0,3.67,clear sky
568,Kapoeta,SS,2022-07-22 03:21:26,4.7717,33.5903,75.69,52,63,9.28,broken clouds
569,Ca Mau,VN,2022-07-22 03:20:34,9.1769,105.15,87.24,63,29,2.86,scattered clouds
570,Bridgetown,BB,2022-07-22 03:21:26,13.1,-59.6167,82.89,74,40,21.85,scattered clouds
571,Huarmey,PE,2022-07-22 03:21:27,-10.0681,-78.1522,62.26,86,39,11.54,scattered clouds
572,Muzhi,RU,2022-07-22 03:21:27,65.3667,64.6667,50.4,62,50,16.42,scattered clouds
573,Manicore,BR,2022-07-22 03:21:27,-5.8092,-61.3003,75.15,94,0,0.0,clear sky
574,Bara,NG,2022-07-22 03:21:28,10.3744,10.7288,72.01,95,79,9.04,broken clouds
575,El Alto,PE,2022-07-22 03:21:28,-4.2714,-81.2147,62.38,82,47,6.04,scattered clouds
576,Ovsyanka,RU,2022-07-22 03:21:29,55.9575,92.5519,67.23,53,100,6.91,overcast clouds
577,Kudahuvadhoo,MV,2022-07-22 03:21:16,2.6708,72.8944,81.05,79,99,23.15,overcast clouds
578,Cabinda,AO,2022-07-22 03:21:29,-5.55,12.2,69.57,88,98,6.98,overcast clouds
579,Kholodnyy,RU,2022-07-22 03:21:30,62.7167,147.95,56.57,65,100,3.02,overcast clouds
580,Tucuman,AR,2022-07-22 03:20:14,-26.8241,-65.2226,59.0,72,8,6.91,clear sky
581,Ramnagar,IN,2022-07-22 03:21:30,29.4,79.1167,80.51,78,100,0.81,overcast clouds
582,Boysun,UZ,2022-07-22 03:21:30,38.2061,67.1986,90.03,16,0,2.42,clear sky
583,Marquette,US,2022-07-22 03:21:31,46.5333,-87.6335,65.64,70,12,5.91,few clouds
584,Spasskoye,RU,2022-07-22 03:21:31,44.6108,132.7969,70.63,89,90,8.52,overcast clouds
585,Henties Bay,NA,2022-07-22 03:21:32,-22.116,14.2845,62.47,54,0,3.69,clear sky
586,Ishigaki,JP,2022-07-22 03:21:32,24.3448,124.1572,91.53,66,40,10.36,scattered clouds
587,Luziania,BR,2022-07-22 03:21:32,-16.2525,-47.9503,65.89,60,29,5.08,scattered clouds
588,Pisco,PE,2022-07-22 03:21:33,-13.7,-76.2167,60.85,82,100,3.44,overcast clouds
589,Sangar,RU,2022-07-22 03:21:33,63.9242,127.4739,66.78,80,88,4.85,light rain
590,Auki,SB,2022-07-22 03:21:34,-8.7676,160.7034,86.97,60,56,3.11,broken clouds
591,Zenzeli,RU,2022-07-22 03:21:34,45.9241,47.0474,72.57,48,54,11.25,broken clouds
592,Cesme,TR,2022-07-22 03:21:35,38.3228,26.3064,76.71,57,0,11.5,clear sky
593,Mastung,PK,2022-07-22 03:21:35,29.7994,66.845,78.62,60,69,3.06,broken clouds
594,Xam Nua,LA,2022-07-22 03:21:35,20.4197,104.0439,78.42,67,85,3.49,overcast clouds
595,Port Hueneme,US,2022-07-22 03:21:36,34.1478,-119.1951,83.25,80,0,8.05,clear sky
596,Humaita,BR,2022-07-22 03:21:36,-7.5061,-63.0208,79.3,55,47,2.3,scattered clouds
597,Sola,VU,2022-07-22 03:21:37,-13.8833,167.55,79.81,80,91,18.12,moderate rain
598,Nuuk,GL,2022-07-22 03:19:20,64.1835,-51.7216,54.21,71,100,5.75,overcast clouds
599,Ulaangom,MN,2022-07-22 03:21:37,49.9811,92.0667,72.46,34,100,6.91,overcast clouds
600,Danjiangkou,CN,2022-07-22 03:21:38,32.5428,111.5086,86.61,69,100,4.9,overcast clouds
601,Ola,RU,2022-07-22 03:21:38,59.5833,151.2833,77.14,69,97,5.39,overcast clouds
602,Mount Isa,AU,2022-07-22 03:21:39,-20.7333,139.5,67.77,15,0,5.75,clear sky
603,Feltre,IT,2022-07-22 03:21:39,46.0235,11.907,74.93,69,1,5.64,clear sky
604,Richards Bay,ZA,2022-07-22 03:21:39,-28.783,32.0377,65.25,84,90,6.13,light rain
605,Vite,IN,2022-07-22 03:21:40,17.2833,74.55,72.28,85,100,9.13,overcast clouds
606,Estepa,ES,2022-07-22 03:21:40,37.2926,-4.879,70.81,64,48,3.89,scattered clouds
607,Port-Gentil,GA,2022-07-22 03:21:41,-0.7193,8.7815,73.74,86,83,15.1,broken clouds
608,De-Kastri,RU,2022-07-22 03:21:41,51.4667,140.7833,59.99,90,100,5.23,overcast clouds
609,Finschhafen,PG,2022-07-22 03:21:41,-6.6024,147.8681,83.55,72,53,4.38,broken clouds
610,Tiznit,MA,2022-07-22 03:21:42,29.5833,-9.5,86.5,16,54,7.14,broken clouds
611,Ixtapa,MX,2022-07-22 03:21:42,20.7,-105.2,85.23,79,40,6.91,scattered clouds
612,Grand Junction,US,2022-07-22 03:17:57,39.0639,-108.5507,92.28,20,0,9.22,clear sky
613,Vokhtoga,RU,2022-07-22 03:21:43,58.8147,41.0461,59.83,80,70,3.24,broken clouds
614,Eyl,SO,2022-07-22 03:21:43,7.9803,49.8164,76.55,69,63,18.39,broken clouds
615,Burns Lake,CA,2022-07-22 03:21:44,54.2331,-125.7533,69.22,43,11,6.22,few clouds
616,Ahuimanu,US,2022-07-22 03:21:44,21.4447,-157.8378,87.51,66,40,14.97,scattered clouds
617,San Antonio,US,2022-07-22 03:18:58,29.4241,-98.4936,89.28,56,0,19.57,clear sky
618,Upata,VE,2022-07-22 03:21:45,8.0086,-62.3989,73.18,98,100,4.29,overcast clouds
619,Acari,PE,2022-07-22 03:21:45,-15.4311,-74.6158,62.38,81,29,2.59,scattered clouds
620,Brae,GB,2022-07-22 03:21:45,60.3964,-1.353,50.0,86,94,8.63,overcast clouds
621,Carballo,ES,2022-07-22 03:21:46,43.213,-8.691,65.62,91,100,9.37,overcast clouds
622,Polonnaruwa,LK,2022-07-22 03:21:46,7.9333,81.0,82.33,71,87,8.66,overcast clouds
623,Colatina,BR,2022-07-22 03:21:47,-19.5394,-40.6306,65.46,97,11,1.97,few clouds
624,Kongolo,CD,2022-07-22 03:21:47,-5.3833,27.0,72.3,50,36,3.31,scattered clouds
625,Sosua,DO,2022-07-22 03:21:47,19.7667,-70.5167,76.91,94,40,0.0,scattered clouds
626,Kholm,RU,2022-07-22 03:21:48,59.2667,32.85,58.12,80,3,2.37,clear sky
627,Mokhsogollokh,RU,2022-07-22 03:21:48,61.4681,128.9203,77.74,51,48,6.4,scattered clouds
628,Caranavi,BO,2022-07-22 03:21:49,-15.8167,-67.55,59.0,94,41,3.02,scattered clouds
629,Apiai,BR,2022-07-22 03:21:49,-24.5094,-48.8425,56.59,91,100,1.32,overcast clouds
630,Sidi Ali,DZ,2022-07-22 03:21:49,36.0998,0.4206,72.28,91,1,1.63,clear sky
631,Bajil,YE,2022-07-22 03:21:50,15.0584,43.2851,86.18,55,6,2.55,clear sky
632,Turayf,SA,2022-07-22 03:20:12,31.6725,38.6637,71.85,56,0,9.22,clear sky
633,Birjand,IR,2022-07-22 03:21:51,32.8663,59.2211,77.47,13,0,4.61,clear sky
634,Mapastepec,MX,2022-07-22 03:21:51,15.4333,-92.9,77.76,91,100,4.0,overcast clouds
635,Nanakuli,US,2022-07-22 03:21:51,21.3906,-158.1547,87.75,49,0,13.8,clear sky
636,Camacupa,AO,2022-07-22 03:21:52,-12.0167,17.4833,54.61,45,47,4.36,scattered clouds
637,Lloret De Mar,ES,2022-07-22 03:21:52,41.6999,2.8457,78.91,74,0,6.35,clear sky
638,Luau,AO,2022-07-22 03:21:53,-10.7073,22.2247,60.04,54,17,3.67,few clouds
639,Namatanai,PG,2022-07-22 03:21:53,-3.6667,152.4333,84.61,68,92,6.29,overcast clouds
640,Aswan,EG,2022-07-22 03:21:53,24.0934,32.907,83.25,20,0,9.91,clear sky
641,Gemena,CD,2022-07-22 03:21:54,3.25,19.7667,68.81,99,98,1.72,moderate rain
642,Beni Mazar,EG,2022-07-22 03:21:54,28.4962,30.8029,73.11,62,0,9.84,clear sky
643,Redmond,US,2022-07-22 03:21:55,47.674,-122.1215,80.53,65,0,3.0,clear sky
644,Acapulco,MX,2022-07-22 03:21:55,16.8634,-99.8901,84.02,79,20,3.44,few clouds
645,Verkhoturye,RU,2022-07-22 03:21:55,58.8627,60.8054,61.81,83,75,5.93,broken clouds
646,Harper,LR,2022-07-22 03:21:56,4.375,-7.7169,75.33,74,99,7.78,overcast clouds
647,Tskaltubo,GE,2022-07-22 03:21:56,42.3254,42.5979,65.34,94,100,2.3,light rain
648,Anadyr,RU,2022-07-22 03:21:57,64.75,177.4833,57.7,50,75,11.18,broken clouds
649,Progreso,MX,2022-07-22 03:21:57,21.2833,-89.6667,82.11,80,95,14.32,overcast clouds
650,Kunri,PK,2022-07-22 03:21:57,25.1785,69.5691,86.36,69,100,17.87,overcast clouds
651,Filingue,NE,2022-07-22 03:21:58,14.3521,3.3168,83.19,58,86,8.19,overcast clouds
652,Prainha,BR,2022-07-22 03:21:58,-1.8,-53.48,74.95,80,30,2.55,scattered clouds
653,Sheffield Lake,US,2022-07-22 03:21:59,41.4875,-82.1015,79.9,71,75,8.05,broken clouds
654,Kastamonu,TR,2022-07-22 03:21:59,41.5,33.6667,52.07,94,5,3.49,clear sky
655,Shu,KZ,2022-07-22 03:20:04,43.5983,73.7614,91.22,11,0,4.63,clear sky
656,Zharkent,KZ,2022-07-22 03:22:00,44.1628,80.0,87.35,16,0,5.46,clear sky
657,San Andres,CO,2022-07-22 03:22:00,12.5847,-81.7006,82.42,83,100,10.36,overcast clouds
658,Bima,ID,2022-07-22 03:22:01,-8.4667,118.7167,80.67,76,100,5.93,overcast clouds
659,Kozelsk,RU,2022-07-22 03:22:01,54.0375,35.7716,54.81,93,63,11.54,broken clouds
660,Mareeba,AU,2022-07-22 03:22:01,-17.0,145.4333,78.44,61,6,3.24,clear sky
661,Jardim,BR,2022-07-22 03:22:02,-21.4803,-56.1381,70.45,47,70,3.4,broken clouds
662,Yenagoa,NG,2022-07-22 03:22:02,4.9247,6.2642,72.68,91,73,3.56,broken clouds
663,Lubango,AO,2022-07-22 03:22:03,-14.9172,13.4925,53.26,44,0,3.94,clear sky
664,North Las Vegas,US,2022-07-22 03:21:57,36.1989,-115.1175,107.58,11,0,10.36,clear sky
665,Intipuca,SV,2022-07-22 03:22:03,13.1969,-88.0544,75.15,93,89,2.24,overcast clouds
666,Nemuro,JP,2022-07-22 03:22:04,43.3236,145.575,62.01,81,2,4.5,clear sky
667,Jacareacanga,BR,2022-07-22 03:22:04,-6.2222,-57.7528,77.59,54,58,2.39,broken clouds
668,Awjilah,LY,2022-07-22 03:22:05,29.1081,21.2869,73.36,43,0,8.86,clear sky
669,Fenoarivo,MG,2022-07-22 03:22:05,-18.933,47.4354,51.87,100,75,5.75,light intensity drizzle
670,Tabas,IR,2022-07-22 03:22:06,33.5959,56.9244,92.68,10,0,1.9,clear sky
671,Atherton,GB,2022-07-22 03:22:06,53.5237,-2.4935,61.75,84,100,1.99,overcast clouds
672,Parrita,CR,2022-07-22 03:22:06,9.5201,-84.3225,75.6,94,100,3.18,overcast clouds
673,Rabo De Peixe,PT,2022-07-22 03:22:07,37.8,-25.5833,68.27,75,20,3.44,few clouds
674,Kangshan,CN,2022-07-22 03:22:07,28.8812,116.4311,91.96,60,65,8.12,broken clouds
675,Qiongshan,CN,2022-07-22 03:22:08,20.0058,110.3542,89.58,66,75,4.47,broken clouds
676,Limpapa,PH,2022-07-22 03:22:08,7.1197,121.9106,85.33,79,87,2.59,overcast clouds
677,Lethem,GY,2022-07-22 03:22:08,3.3803,-59.7968,74.68,89,92,5.44,overcast clouds
678,Lasa,IT,2022-07-22 03:22:09,46.6166,10.7002,67.08,87,18,2.44,few clouds
679,Colac,AU,2022-07-22 03:22:09,-38.3333,143.5833,59.16,55,100,12.59,moderate rain
680,Bon Accord,CA,2022-07-22 03:22:10,53.8335,-113.4187,70.23,60,75,5.75,broken clouds
681,Buala,SB,2022-07-22 03:22:10,-8.145,159.5921,85.21,68,92,2.39,light rain
682,Pundaguitan,PH,2022-07-22 03:22:10,6.3711,126.1689,82.6,71,86,4.0,overcast clouds
683,Kalmar,SE,2022-07-22 03:21:07,56.6616,16.3616,66.15,93,98,3.0,overcast clouds
684,Konya,TR,2022-07-22 03:22:11,38.1667,32.5,60.28,56,0,6.78,clear sky
685,Port Charlotte,US,2022-07-22 03:22:11,26.9762,-82.0906,81.99,79,40,7.0,scattered clouds
686,Vilyuysk,RU,2022-07-22 03:22:12,63.7553,121.6247,63.57,72,100,7.11,overcast clouds
687,San Luis,AR,2022-07-22 03:22:12,-33.295,-66.3356,52.66,40,0,10.76,clear sky
688,Mirnyy,RU,2022-07-22 03:22:13,62.5353,113.9611,75.24,46,28,11.01,scattered clouds
689,Shimoda,JP,2022-07-22 03:22:13,34.6667,138.95,92.1,77,5,12.46,clear sky
690,Villa Carlos Paz,AR,2022-07-22 03:22:13,-31.4241,-64.4978,49.39,52,0,3.11,clear sky
691,Kilindoni,TZ,2022-07-22 03:22:14,-7.9139,39.6668,75.63,72,12,14.67,few clouds
692,Lorengau,PG,2022-07-22 03:22:14,-2.0226,147.2712,84.99,70,41,10.51,scattered clouds
693,Pemangkat,ID,2022-07-22 03:22:14,1.1667,108.9667,80.38,82,100,11.68,overcast clouds
694,Kalianget,ID,2022-07-22 03:22:15,-7.05,113.9333,82.44,67,100,7.11,overcast clouds
695,Santa Luzia,BR,2022-07-22 03:22:15,-19.7697,-43.8514,61.7,77,0,0.0,clear sky
696,Ilam,NP,2022-07-22 03:22:15,26.9167,87.9167,71.56,90,100,3.22,overcast clouds
697,Koslan,RU,2022-07-22 03:22:16,63.4564,48.8989,63.39,70,84,6.96,broken clouds
698,Menomonie,US,2022-07-22 03:22:16,44.8755,-91.9193,71.64,56,0,0.0,clear sky
699,Nortelandia,BR,2022-07-22 03:22:17,-14.4547,-56.8028,71.02,45,61,3.42,broken clouds
700,Chipinge,ZW,2022-07-22 03:22:17,-20.1883,32.6236,51.93,95,56,3.62,broken clouds
701,Jumla,NP,2022-07-22 03:22:18,29.2747,82.1838,68.47,82,99,3.44,overcast clouds
702,Oistins,BB,2022-07-22 03:22:18,13.0667,-59.5333,82.49,74,40,21.85,scattered clouds
703,Eirunepe,BR,2022-07-22 03:22:19,-6.6603,-69.8736,77.02,72,90,3.0,overcast clouds
704,Nara,JP,2022-07-22 03:22:19,34.6851,135.8049,88.92,43,40,13.71,scattered clouds
705,Zaraysk,RU,2022-07-22 03:22:19,54.7653,38.8836,57.6,94,99,14.85,overcast clouds
706,Riyadh,SA,2022-07-22 03:17:47,24.6877,46.7219,89.74,12,43,7.05,scattered clouds
707,Mutoko,ZW,2022-07-22 03:22:20,-17.397,32.2268,50.59,87,11,3.2,few clouds
708,Waipawa,NZ,2022-07-22 03:22:20,-41.4122,175.5153,46.9,73,95,11.81,overcast clouds
709,Basco,PH,2022-07-22 03:22:21,20.4487,121.9702,85.87,74,71,11.05,broken clouds
710,Alghero,IT,2022-07-22 03:22:21,40.5589,8.3181,68.09,88,0,2.3,clear sky
711,Kapitanivka,UA,2022-07-22 03:22:22,48.9172,31.7167,56.82,95,0,7.92,clear sky
712,Tinskoy,RU,2022-07-22 03:22:22,56.1525,96.9161,75.0,45,74,3.27,broken clouds
713,Kupang,ID,2022-07-22 03:22:22,-10.1667,123.5833,85.1,46,92,12.86,overcast clouds
714,Baherden,TM,2022-07-22 03:22:23,38.4362,57.4316,92.16,25,0,8.48,clear sky
